{
    "type": "FeatureCollection",
    "features": [
        {
            "type": "Feature",
            "properties": {
                "marker-color": "#cd001a",
                "marker-size": "small",
                "marker-symbol": "",
                "Names": "Greg Johll (North Central)"
            },
            "geometry": {
                "type": "Point",
                "coordinates": [
                    -89.4125,
                    43.0766
                ]
            }
        },
        {
            "type": "Feature",
            "properties": {
                "marker-color": "#6a0005",
                "marker-size": "small",
                "marker-symbol": "",
                "Names": "Bekah Sparks (Communications Manager)"
            },
            "geometry": {
                "type": "Point",
                "coordinates": [
                    -88.7944,
                    33.4552
                ]
            }
        },
        {
            "type": "Feature",
            "properties": {
                "marker-color": "#960d16",
                "marker-size": "small",
                "marker-symbol": "",
                "Names": "John Harley (Southern)"
            },
            "geometry": {
                "type": "Point",
                "coordinates": [
                    -85.4952,
                    32.5934
                ]
            }
        },
        {
            "type": "Feature",
            "properties": {
                "marker-color": "#005398",
                "marker-size": "small",
                "marker-symbol": "star",
                "Names": "Jennifer Sykes (President)"
            },
            "geometry": {
                "type": "Point",
                "coordinates": [
                    -82.3549,
                    29.6436
                ]
            }
        },
        {
            "type": "Feature",
            "properties": {
                "marker-color": "#12407a",
                "marker-size": "small",
                "marker-symbol": "",
                "Name": "Jackie Weikert (Northeast)"
            },
            "geometry": {
                "type": "Point",
                "coordinates": [
                    -77.8599,
                    40.7982
                ]
            }
        },
        {
            "type": "Feature",
            "properties": {
                "marker-color": "#cc0000",
                "marker-size": "small",
                "marker-symbol": "",
                "Name": "Mike Mauton (Vice President), Kristi Elmore (Secretary)"
            },
            "geometry": {
                "type": "Point",
                "coordinates": [
                    -93.6465,
                    42.0266
                ]
            }
        },
        {
            "type": "Feature",
            "properties": {
                "marker-color": "#c30011",
                "marker-size": "small",
                "marker-symbol": "",
                "Names": "Steve Lichtensteiger (Treasurer)"
            },
            "geometry": {
                "type": "Point",
                "coordinates": [
                    -83.0309,
                    40.0142
                ]
            }
        },
        {
            "type": "Feature",
            "properties": {
                "marker-color": "#63001f",
                "marker-size": "small",
                "marker-symbol": "",
                "Names": "Nic Richardson (Western)"
            },
            "geometry": {
                "type": "Point",
                "coordinates": [
                    -111.0676,
                    45.6647
                ]
            }
        },
        {
            "type": "Feature",
            "properties": {
                "marker-color": "#9e1d34",
                "marker-size": "small",
                "marker-symbol": "",
                "Names": "Bill Bonner (Current Conference)"
            },
            "geometry": {
                "type": "Point",
                "coordinates": [
                    -117.154213,
                    46.731922
                ]
            }
        },
        {
            "type": "Feature",
            "properties": {
                "marker-color": "#002853",
                "marker-size": "small",
                "marker-symbol": "",
                "Names": "Ron Davis (Past Conference)"
            },
            "geometry": {
                "type": "Point",
                "coordinates": [
                    -79.9559,
                    39.6361
                ]
            }
        },
      {
            "type": "Feature",
            "properties": {
                "marker-color": "#502781",
                "marker-size": "small",
                "marker-symbol": "",
                "Names": "Joel Wallace (Vice President Elect)"
            },
            "geometry": {
                "type": "Point",
                "coordinates": [
                    -96.584724,
                    39.197445
                ]
            }
        },
        {
            "type": "Feature",
            "properties": {
                "marker-color": "#005e98",
                "marker-size": "small",
                "marker-symbol": "",
                "Name": "William Scott (1890's)"
            },
            "geometry": {
                "type": "Point",
                "coordinates": [
                    -85.7077,
                    32.4302
                ]
            }
        }
    ]
}
